[
    {
        "name": "Departamento de Biologia",
        "address": "Campus de Santiago, 3810-193 Aveiro",
        "latitude": 40.633114,
        "longitude": -8.655342,
        "game": 1
    },
    {
        "name": "Antiga Reitoria",
        "address": "Estacionamento, 3810-193 Aveiro",
        "latitude": 40.633743, 
        "longitude": -8.659274,
        "game": 2
    },
    {
        "name": "IEETA",
        "address": "IEETA - Instituto de Engenharia Electrónica e Telemática de Aveiro, 3810-193 Aveiro",
        "latitude": 40.633139,
        "longitude": -8.660472,
        "game": 3
    },
    {
        "name": "Parque Frente à Prisão de Aveiro",
        "address": "Universidade de Aveiro, 3810-096 Aveiro",
        "latitude": 40.636453, 
        "longitude": -8.657182,
        "game": 4
    },
    {
        "name": "Fábrica da Ciência Viva",
        "address": "R. dos Santos Mártires 1A, 3810-164 Aveiro",
        "latitude": 40.638531,
        "longitude": -8.657507,
        "game": 5
    },
    {
        "name": "Clube de Ténis de Aveiro",
        "address": "R. Manuel Mendes 2, 3810-164 Aveiro",
        "latitude": 40.638707,
        "longitude": -8.656417,
        "game": 6
    },
    {
        "name": "Bairro do Alboi",
        "address": "Largo do Conselheiro Queiroz 28, 3810-126 Aveiro",
        "latitude": 40.639753,
        "longitude": -8.657079,
        "game": 7
    },
    {
        "name": "Parte de cima Ria Café",
        "address": "R. do Clube dos Galitos 9, 3810-164 Aveiro",
        "latitude": 40.641115,
        "longitude": -8.654737,
        "game": 7
    }
]
